[
    {
        "name": "Legacy of the Plains Museum",
        "hours": "Monday thru Saturday, 9:00 am to 5 pm, Sunday 1:00 pm to 5 pm",
        "phone": "402-575-7472",
        "link": "legacyoftheplains.org",
        "description": "Located on the Oregon Trail, the Legacy of the Plains Museum features an impressive collection of pioneer and early community artifacts, antique tractors, and farm implements; an 80-acre working farm; historic farmstead structures; and striking views of nearby bluffs, including Scotts Bluff National Monument. The Museum tells the timeless stories of the Nebraska prairie.", 
        "image": "https://visitnebraska.com/sites/default/files/listing_images/profile/3286/Legacy_Photograph.png",
        "address": {
            "streetAddress": "630 N 14th Street",
            "city": "Lincoln",
            "state": "NE",
            "postalCode": "68508"
        },
        "coordinates": [
            41.82231723760316, -103.68720031534498
        ]
    },
    {
        "name": "Museum of the Fur Trade",
        "hours": "Monday thru Saturday, 9:00 am to 5 pm, Sunday 1:00 pm to 5 pm",
        "phone": "402-575-7472",
        "link": "legacyoftheplains.org",
        "description": "Located on the Oregon Trail, the Legacy of the Plains Museum features an impressive collection of pioneer and early community artifacts, antique tractors, and farm implements; an 80-acre working farm; historic farmstead structures; and striking views of nearby bluffs, including Scotts Bluff National Monument. The Museum tells the timeless stories of the Nebraska prairie.", 
        "image": "https://visitnebraska.com/sites/default/files/listing_images/profile/3286/Legacy_Photograph.png",
        "address": {
            "streetAddress": "630 N 14th Street",
            "city": "Lincoln",
            "state": "NE",
            "postalCode": "68508"
        },
        "coordinates": [
            42.824315268651404, -102.92807486931005
        ]
    },
    {
        "name": "Bayard Depot Museum",
        "hours": "Monday thru Saturday, 9:00 am to 5 pm, Sunday 1:00 pm to 5 pm",
        "phone": "402-575-7472",
        "link": "legacyoftheplains.org",
        "description": "Located on the Oregon Trail, the Legacy of the Plains Museum features an impressive collection of pioneer and early community artifacts, antique tractors, and farm implements; an 80-acre working farm; historic farmstead structures; and striking views of nearby bluffs, including Scotts Bluff National Monument. The Museum tells the timeless stories of the Nebraska prairie.", 
        "image": "https://visitnebraska.com/sites/default/files/listing_images/profile/3286/Legacy_Photograph.png",
        "address": {
            "streetAddress": "630 N 14th Street",
            "city": "Lincoln",
            "state": "NE",
            "postalCode": "68508"
        },
        "coordinates": [
            41.752408694434656, -103.32443382327511
        ]
    },
    {
        "name": "Thomas County Historical Society",
        "hours": "Monday thru Saturday, 9:00 am to 5 pm, Sunday 1:00 pm to 5 pm",
        "phone": "402-575-7472",
        "link": "legacyoftheplains.org",
        "description": "Located on the Oregon Trail, the Legacy of the Plains Museum features an impressive collection of pioneer and early community artifacts, antique tractors, and farm implements; an 80-acre working farm; historic farmstead structures; and striking views of nearby bluffs, including Scotts Bluff National Monument. The Museum tells the timeless stories of the Nebraska prairie.", 
        "image": "https://visitnebraska.com/sites/default/files/listing_images/profile/3286/Legacy_Photograph.png",
        "address": {
            "streetAddress": "630 N 14th Street",
            "city": "Lincoln",
            "state": "NE",
            "postalCode": "68508"
        },
        "coordinates": [
            40.81479505467293, -96.70219858465505
        ]
    },
    {
        "name": "Sandhills Heritage Museum",
        "hours": "Monday thru Saturday, 9:00 am to 5 pm, Sunday 1:00 pm to 5 pm",
        "phone": "402-575-7472",
        "link": "legacyoftheplains.org",
        "description": "Located on the Oregon Trail, the Legacy of the Plains Museum features an impressive collection of pioneer and early community artifacts, antique tractors, and farm implements; an 80-acre working farm; historic farmstead structures; and striking views of nearby bluffs, including Scotts Bluff National Monument. The Museum tells the timeless stories of the Nebraska prairie.", 
        "image": "https://visitnebraska.com/sites/default/files/listing_images/profile/3286/Legacy_Photograph.png",
        "address": {
            "streetAddress": "630 N 14th Street",
            "city": "Lincoln",
            "state": "NE",
            "postalCode": "68508"
        },
        "coordinates": [
            42.104181683127564, -102.86708251534496
        ]
    }
]
